name,latitude,longitude,visitDate,status,description
Port Blair,11.6234,92.7265,2025-05-29,visited, "I have visited Andaman and Nicobar Islands three times, is is one of the most beautiful places in India, each time I have gone their, the excitement, the adventure, its all enthralling."
Leh,34.1526,77.5771,2023-07-01,visited, "Having visited Leh once with my family, that too in not too peak tourist season, allowed me to experience the sheer beauty of the place, I travelled to multiple places in the region, including Zanskar, Pangong Lake and Khardungla - the second highest motorable road in the world. I have visted it in July, when the snow isn't everywhere, and I would love to do it again when I can enjoy the snow"
Gokarna,14.5479,74.3188,2025-02-17,visited, "Remember the college trip with your friends, that becomes the baseline for any future trip ? That is what Gokarna and Dandelli are to me. From the stay, to the beaces, to the trek, to the food, to the adventure, to the laugs, everything was perfect, down to the last minute detail."
Dandelli,15.2361,74.6173,2025-02-15,visited, "On the trip to Gokarna, I had the opportunity to visit Dandelli, a beautiful place with a serene atmosphere. The place is known for its natural beauty and serene environment, making it a perfect destination for a peaceful getaway. The place is known for rafting, and we were lucky to have a great guide who made the experience even more memorable."
Murdeshwar,14.0940,74.4899,2025-02-16,visited, "Murdeshwar is a beautiful place with a serene atmosphere. The place is known for the main attraction - Shri Mahabaleshwar Temple. The temple is known for its architecture and the gorgeous statue of Lord Shiva."
Honnavar,14.2798,74.4439,2025-02-16,visited, "I went to Honnavar with my friends, the beautiful and calm backwaters of Honnavar were a peaceful pause to the trip."